time,ISS_roll_x(rad),ISS_pitch_y(rad),yaw_z(rad),ISS_lattitude,ISS_longitude, humidity,temperature(C),pressure(Millibars), IssDistanceToEarthSeaLevel(km),magint_x(microteslas),magint_y(microteslas),magint_z(microteslas), ISS_to_Sun(km)
2019-04-10 17:44:18.426280,0.354,0.0153,-2.0888,-51:10:28.2,131:29:23.6,38.57,30.4756,987.1523,426991.59375,-9.0035,19.9274,9.5851,149872905.0873
2019-04-10 17:44:19.667366,0.597,0.1549,-1.9303,-51:11:00.5,131:35:15.8,38.4769,30.6018,987.2192,426996.96875,-15.0316,32.7267,15.2959,149872905.9138
2019-04-10 17:44:20.765143,0.8511,0.2516,-1.7439,-51:11:32.5,131:41:08.1,38.5055,30.5477,987.2209,427002.28125,-18.7832,40.6826,19.1741,149872906.7319
2019-04-10 17:44:21.867213,1.1169,0.2935,-1.5434,-51:12:04.1,131:47:00.6,38.9857,30.4576,987.2322,427007.59375,-21.6515,46.0713,21.9035,149872907.5421
2019-04-10 17:44:22.963972,1.3751,0.2837,-1.3483,-51:13:06.5,131:58:46.0,38.4052,30.5297,987.1804,427018.09375,-23.1651,49.2547,23.7452,149872909.1381
2019-04-10 17:44:24.066667,1.6164,0.2338,-1.1661,-51:13:37.2,132:04:38.8,38.5235,30.6198,987.1521,427023.28125,-24.2567,50.7336,24.5892,149872909.9238
2019-04-10 17:44:25.163876,1.8313,0.1507,-1.0127,-51:14:07.6,132:10:31.8,38.2153,30.5838,987.1765,427028.4375,-24.7856,52.2709,24.6448,149872910.7014
2019-04-10 17:44:26.263852,2.0218,0.0428,-0.8861,-51:14:37.6,132:16:25.0,38.5808,30.4936,987.2056,427033.5625,-25.144,53.4264,25.0301,149872911.4709
2019-04-10 17:44:27.360594,2.1918,-0.0806,-0.7868,-51:15:07.4,132:22:18.3,38.5951,30.6379,987.1833,427038.625,-25.4947,54.0147,25.5435,149872912.2323
2019-04-10 17:44:28.457181,2.3504,-0.2129,-0.7127,-51:15:36.8,132:28:11.7,38.57,30.6198,987.1704,427043.6875,-25.4907,54.3883,25.7379,149872912.9856
2019-04-10 17:44:29.553774,2.4975,-0.3492,-0.6593,-51:16:05.9,132:34:05.3,38.14,30.5297,987.1592,427048.6875,-25.7823,54.6825,25.8304,149872913.7308
2019-04-10 17:44:30.658790,2.8125,-0.6618,-0.6143,-51:16:34.7,132:39:58.9,38.3443,30.4936,987.1602,427053.6875,-25.838,54.7474,25.8123,149872914.4676
2019-04-10 17:44:31.767536,-3.0745,-0.9513,-0.7142,-51:17:03.1,132:45:52.8,38.527,30.4936,987.1716,427058.625,-25.8346,54.7883,25.8053,149872915.1965
2019-04-10 17:44:32.865868,-2.4078,-1.1539,-1.1236,-51:17:31.3,132:51:46.7,38.2905,30.5117,987.1697,427063.53125,-25.8265,54.8997,25.9242,149872915.9171
2019-04-10 17:44:33.975663,-1.4678,-1.1547,-1.818,-51:18:26.6,133:03:34.9,38.502,30.4936,987.1753,427073.25,-25.7878,54.8853,25.8706,149872917.3334
2019-04-10 17:44:35.076513,-0.8466,-0.9652,-2.1982,-51:18:53.7,133:09:29.2,38.4482,30.5658,987.1709,427078.0625,-25.8074,54.8051,26.0205,149872918.0293
2019-04-10 17:44:36.174422,-0.4885,-0.7239,-2.3099,-51:19:20.6,133:15:23.6,38.33,30.6198,987.1677,427082.8125,-25.7933,54.7236,25.9115,149872918.717
2019-04-10 17:44:37.273507,-0.2274,-0.4794,-2.3065,-51:19:47.1,133:21:18.2,38.5091,30.6018,987.1658,427087.5625,-25.8224,54.8856,25.6481,149872937.23
2019-04-10 17:44:38.375311,0.001,-0.2519,-2.2424,-51:20:13.3,133:27:12.8,38.5235,30.5658,987.176,427092.25,-25.8211,54.9305,25.8082,149872937.9015
2019-04-10 17:44:39.473917,0.2296,-0.0509,-2.1369,-51:20:39.1,133:33:07.6,38.6525,30.6018,987.1846,427096.90625,-25.8159,54.9167,25.4364,149872938.5645
2019-04-10 17:44:40.573817,0.471,0.1108,-1.9944,-51:21:04.7,133:39:02.5,38.8173,30.6018,987.1941,427101.53125,-25.9891,54.8449,25.2439,149872939.219
2019-04-10 17:44:41.674896,0.725,0.2285,-1.8212,-51:21:29.9,133:44:57.5,38.8137,30.5658,987.1682,427106.125,-25.8846,54.8511,25.1014,149872939.8658
2019-04-10 17:44:42.774060,0.9892,0.2959,-1.629,-51:21:54.8,133:50:52.6,38.57,30.5838,987.1641,427110.6875,-25.9106,54.7846,25.2708,149872940.504
2019-04-10 17:44:43.877505,1.2593,0.3127,-1.4253,-51:22:19.4,133:56:47.8,38.5127,30.5117,987.1899,427115.21875,-26.0511,54.7173,25.2295,149872941.1338
2019-04-10 17:44:44.974641,1.5116,0.2798,-1.2373,-51:23:07.5,134:08:38.6,38.5736,30.6018,987.1831,427124.125,-25.8702,54.89,25.2306,149872942.369
2019-04-10 17:44:46.077216,1.7471,0.2067,-1.0706,-51:23:31.1,134:14:34.2,38.5521,30.5117,987.1799,427128.5625,-26.1245,54.8254,25.2818,149872942.974
2019-04-10 17:44:47.183648,1.9528,0.106,-0.9373,-51:23:54.4,134:20:29.8,38.6059,30.5838,987.1685,427132.9375,-26.0969,54.9714,25.4055,149872943.5708
2019-04-10 17:44:48.285454,2.1361,-0.0149,-0.8256,-51:24:17.4,134:26:25.6,38.4984,30.5117,987.1829,427137.28125,-26.2465,54.8451,25.2062,149872944.1596
2019-04-10 17:44:49.388333,2.2958,-0.146,-0.7413,-51:24:40.0,134:32:21.4,38.5593,30.5117,987.1582,427141.5625,-26.1789,54.9118,25.0344,149872944.7398
2019-04-10 17:44:50.494398,2.4472,-0.281,-0.6814,-51:25:02.3,134:38:17.4,38.7241,30.6018,987.1528,427145.84375,-25.9486,54.71,25.1538,149872945.3116
2019-04-10 17:44:51.597444,2.766,-0.587,-0.6305,-51:25:24.2,134:44:13.5,38.7671,30.5297,987.1799,427150.09375,-25.8571,54.8347,25.3718,149872945.8752
2019-04-10 17:44:52.702717,-3.1365,-0.8839,-0.7032,-51:25:45.9,134:50:09.6,38.502,30.5838,987.1528,427154.28125,-25.8038,54.7649,25.4533,149872946.4306
2019-04-10 17:44:53.804928,-2.541,-1.11,-1.0333,-51:26:07.2,134:56:05.9,38.5736,30.4936,987.2061,427158.4375,-25.653,54.5842,25.5942,149872946.9775
2019-04-10 17:44:54.907947,-1.6464,-1.1529,-1.6842,-51:26:28.2,135:02:02.3,38.312,30.5117,987.1887,427162.5625,-25.7898,54.6944,25.8879,149872947.516
2019-04-10 17:44:56.004817,-0.9631,-0.9913,-2.131,-51:27:09.2,135:13:55.2,38.6489,30.5658,987.2368,427170.71875,-25.9312,54.8516,25.6409,149872948.5681
2019-04-10 17:44:57.108041,-0.568,-0.7556,-2.2823,-51:27:29.2,135:19:51.9,38.6453,30.6018,987.2048,427174.75,-26.2973,54.8811,25.7313,149872949.0817
2019-04-10 17:44:58.213119,-0.2877,-0.5118,-2.2999,-51:27:48.9,135:25:48.6,38.5378,30.4756,987.1643,427178.71875,-26.1676,54.9369,25.2589,149872949.5868
2019-04-10 17:44:59.316145,-0.0508,-0.2811,-2.2513,-51:28:08.2,135:31:45.4,38.6059,30.5117,987.1577,427182.6875,-26.169,54.6646,25.4361,149872950.0834
2019-04-10 17:45:00.417422,0.1764,-0.077,-2.1571,-51:28:27.3,135:37:42.3,38.9965,30.4936,987.1753,427186.59375,-25.9949,55.0297,25.2556,149872950.5719
2019-04-10 17:45:01.514364,0.4103,0.093,-2.0231,-51:28:46.0,135:43:39.3,39.0574,30.5297,987.1804,427190.46875,-25.9802,54.8221,25.0755,149872951.0521
2019-04-10 17:45:02.737379,0.6939,0.2355,-1.8339,-51:29:04.4,135:49:36.3,38.9821,30.5117,987.1689,427194.3125,-25.9574,54.7162,25.2774,149872951.5236
2019-04-10 17:45:03.900924,0.981,0.3134,-1.6283,-51:29:22.4,135:55:33.5,38.484,30.5297,987.1833,427198.125,-26.1177,54.549,25.2021,149872951.9868
2019-04-10 17:45:05.067536,1.2704,0.3307,-1.4154,-51:29:57.5,136:07:28.0,38.717,30.5658,987.1812,427205.625,-26.3017,54.4544,24.8297,149872952.8881
2019-04-10 17:45:06.245199,1.5507,0.2922,-1.2128,-51:30:14.6,136:13:25.4,38.803,30.5117,987.1853,427209.3125,-26.4587,54.3421,25.0792,149872953.3262
2019-04-10 17:45:07.401687,1.7903,0.2094,-1.0438,-51:30:31.3,136:19:22.9,38.8997,30.5477,987.1726,427213.0,-26.2383,54.3276,24.874,149872953.756
2019-04-10 17:45:08.565469,2.0058,0.0969,-0.9037,-51:30:47.7,136:25:20.4,38.5915,30.5838,987.1584,427216.625,-26.4667,54.2937,24.6164,149872954.177
2019-04-10 17:45:09.671482,2.1853,-0.0274,-0.8042,-51:31:03.8,136:31:18.0,38.6847,30.5838,987.1877,427220.21875,-26.2054,54.3475,24.3465,149872954.5898
2019-04-10 17:45:10.776583,2.3466,-0.161,-0.7287,-51:31:19.6,136:37:15.7,38.527,30.5658,987.1692,427223.75,-26.2216,54.3828,24.7418,149872954.9945
2019-04-10 17:45:11.873156,2.497,-0.298,-0.677,-51:31:35.0,136:43:13.4,38.5199,30.5297,987.1702,427227.28125,-26.2605,54.3769,24.5273,149872955.3902
2019-04-10 17:45:12.979439,2.8205,-0.6088,-0.6376,-51:32:04.8,136:55:09.2,38.7385,30.5117,987.1846,427234.21875,-26.4172,54.5752,24.8982,149872956.1569
2019-04-10 17:45:14.088723,-3.0668,-0.9002,-0.737,-51:32:19.3,137:01:07.1,38.6023,30.6198,987.1807,427237.625,-26.4934,54.5409,25.0387,149872974.3609
2019-04-10 17:45:15.197601,-2.4357,-1.1093,-1.1101,-51:32:33.4,137:07:05.1,39.1398,30.6018,987.1479,427241.0,-26.8052,54.5345,24.5961,149872974.7232
2019-04-10 17:45:16.306761,-1.4824,-1.1176,-1.7451,-51:32:47.2,137:13:03.2,38.76,30.5477,987.158,427244.34375,-26.5847,54.4631,24.4276,149872975.077
2019-04-10 17:45:17.404016,-0.8836,-0.9372,-2.1118,-51:33:00.6,137:19:01.4,38.889,30.4756,987.1575,427247.65625,-26.5933,54.1143,24.6416,149872975.4223
2019-04-10 17:45:18.502338,-0.5209,-0.702,-2.2341,-51:33:13.7,137:24:59.6,38.5378,30.4936,987.1582,427250.9375,-26.5661,54.5504,24.6358,149872975.759
2019-04-10 17:45:19.610118,-0.2508,-0.4591,-2.2434,-51:33:26.5,137:30:57.8,38.5593,30.4576,987.208,427254.15625,-26.5854,54.4818,24.6005,149872976.0876
2019-04-10 17:45:20.707752,-0.0186,-0.237,-2.1898,-51:33:39.0,137:36:56.1,38.785,30.4936,987.2402,427257.34375,-26.6838,54.4323,24.6348,149872976.4073
2019-04-10 17:45:21.818615,0.2153,-0.0376,-2.0912,-51:33:51.1,137:42:54.5,38.5987,30.4936,987.167,427260.5,-26.6793,54.5519,24.6064,149872976.7188
2019-04-10 17:45:22.916716,0.4579,0.1267,-1.953,-51:34:02.9,137:48:52.9,38.6632,30.6018,987.186,427263.625,-26.7018,54.6194,24.706,149872977.0217
2019-04-10 17:45:24.017037,0.7155,0.2481,-1.7835,-51:34:25.6,138:00:50.0,38.2762,30.5838,987.1531,427269.78125,-26.6594,54.4289,24.2753,149872977.6023
2019-04-10 17:45:25.114597,0.9845,0.3179,-1.5927,-51:34:36.4,138:06:48.6,38.6632,30.4936,987.1951,427272.8125,-26.7495,54.5289,24.2275,149872977.8796
2019-04-10 17:45:26.217110,1.2574,0.3344,-1.3923,-51:34:46.8,138:12:47.2,38.8209,30.4936,987.2302,427275.78125,-26.7911,54.4113,24.5309,149872978.1487
2019-04-10 17:45:27.313518,1.5146,0.3014,-1.2087,-51:34:57.0,138:18:45.9,38.6345,30.4936,987.1738,427278.71875,-26.8799,54.56,24.7311,149872978.4093
2019-04-10 17:45:28.413133,1.745,0.2309,-1.0428,-51:35:06.8,138:24:44.6,38.785,30.4756,987.1375,427281.625,-27.068,54.5056,24.6844,149872978.6613
2019-04-10 17:45:29.511204,1.9516,0.1313,-0.9101,-51:35:16.3,138:30:43.4,38.6238,30.4936,987.1711,427284.5,-27.0716,54.418,24.728,149872978.9048
2019-04-10 17:45:30.611188,2.1378,0.0106,-0.8027,-51:35:25.5,138:36:42.2,38.6238,30.4215,987.1611,427287.34375,-26.9576,54.4268,24.7759,149872979.1401
2019-04-10 17:45:31.710829,2.3035,-0.1189,-0.7221,-51:35:34.3,138:42:41.0,38.8782,30.4936,987.1624,427290.15625,-26.856,54.3957,24.864,149872979.3665
2019-04-10 17:45:32.809456,2.4561,-0.2557,-0.6652,-51:35:42.8,138:48:39.9,38.7098,30.6018,987.1545,427292.90625,-26.8719,54.221,23.9922,149872979.5847
2019-04-10 17:45:33.911476,2.7738,-0.5656,-0.6125,-51:35:51.0,138:54:38.9,38.4805,30.4756,987.1467,427295.65625,-26.7182,54.3244,24.1183,149872979.794
2019-04-10 17:45:35.010728,-3.1337,-0.8587,-0.688,-51:36:06.3,139:06:36.8,38.699,30.5477,987.1592,427301.0,-26.7202,54.4121,24.2872,149872980.1876
2019-04-10 17:45:36.117587,-2.5563,-1.0918,-1.0029,-51:36:13.5,139:12:35.9,38.7994,30.6018,987.1562,427303.625,-26.666,54.417,24.2878,149872980.3716
2019-04-10 17:45:37.216025,-1.6859,-1.1434,-1.6315,-51:36:20.4,139:18:35.0,38.613,30.5477,987.175,427306.1875,-26.7624,54.3102,24.3764,149872980.5474
2019-04-10 17:45:38.318312,-0.9954,-0.9917,-2.088,-51:36:26.9,139:24:34.1,38.4195,30.5477,987.1782,427308.75,-26.6701,54.1311,24.5376,149872980.7143
2019-04-10 17:45:39.424320,-0.5918,-0.759,-2.252,-51:36:33.1,139:30:33.2,38.5091,30.4215,987.2075,427311.25,-26.8622,53.6892,24.4925,149872980.8727
2019-04-10 17:45:40.534241,-0.3081,-0.5145,-2.277,-51:36:38.9,139:36:32.3,38.613,30.4576,987.1956,427313.75,-26.5478,53.6168,24.3445,149872981.0228
2019-04-10 17:45:41.637025,-0.0673,-0.2852,-2.2341,-51:36:44.5,139:42:31.5,38.8424,30.5838,987.1648,427316.1875,-26.7071,53.9609,24.3372,149872981.164
2019-04-10 17:45:42.736106,0.1629,-0.0798,-2.1439,-51:36:49.7,139:48:30.7,38.6023,30.5658,987.1594,427318.59375,-26.6788,54.1039,24.2594,149872981.297
2019-04-10 17:45:43.845354,0.3985,0.0963,-2.0118,-51:36:54.5,139:54:30.0,38.8173,30.5477,987.1626,427320.96875,-26.841,54.3952,24.2458,149872981.4215
2019-04-10 17:45:44.943891,0.6512,0.2272,-1.8468,-51:36:59.1,140:00:29.2,38.8925,30.4756,987.1799,427323.28125,-26.8202,54.1728,24.6447,149872981.5374
2019-04-10 17:45:46.045737,0.9178,0.3038,-1.6611,-51:37:07.1,140:12:27.8,38.975,30.6198,987.147,427327.84375,-26.5708,54.0274,24.4169,149872981.7433
2019-04-10 17:45:47.148677,1.1896,0.3327,-1.4628,-51:37:10.7,140:18:27.1,39.1326,30.5117,987.1536,427330.0625,-26.8634,53.8098,24.4095,149872981.8339
2019-04-10 17:45:48.247294,1.4536,0.3112,-1.2718,-51:37:13.9,140:24:26.4,39.1685,30.4756,987.1631,427332.25,-26.9073,53.597,24.174,149872981.9156
2019-04-10 17:45:49.345321,1.6934,0.2474,-1.1036,-51:37:16.8,140:30:25.7,38.6345,30.4576,987.1548,427334.40625,-27.1729,53.6684,23.9866,149872981.9887
2019-04-10 17:45:50.442341,1.9054,0.1544,-0.9604,-51:37:19.3,140:36:25.1,38.5808,30.4756,987.1787,427336.53125,-27.1131,53.6393,24.3684,149872982.0533
2019-04-10 17:45:51.547854,2.0977,0.0369,-0.8482,-51:37:21.5,140:42:24.4,38.5306,30.5658,987.1921,427338.625,-27.0393,53.5914,23.706,149872999.9432
2019-04-10 17:45:52.649309,2.2698,-0.0911,-0.7664,-51:37:23.4,140:48:23.8,38.8925,30.4395,987.1692,427340.65625,-26.9527,53.4964,24.2137,149872999.9907
2019-04-10 17:45:53.748246,2.4244,-0.2261,-0.7062,-51:37:25.0,140:54:23.2,38.803,30.4756,987.1616,427342.65625,-26.952,53.6173,24.3802,149873000.0296
2019-04-10 17:45:54.850602,2.5681,-0.3653,-0.6631,-51:37:26.2,141:00:22.5,38.7707,30.4756,987.1819,427344.625,-26.8971,53.9195,24.3856,149873000.0603
2019-04-10 17:45:55.950348,2.8989,-0.6689,-0.6508,-51:37:27.1,141:06:21.9,38.545,30.5117,987.166,427346.5625,-26.8627,54.0214,24.4809,149873000.0824
2019-04-10 17:45:57.049645,-2.963,-0.9483,-0.786,-51:37:27.9,141:18:20.7,38.5306,30.5477,987.1709,427350.34375,-26.9673,53.9985,24.1197,149873000.1007
2019-04-10 17:45:58.151574,-2.282,-1.1344,-1.2145,-51:37:27.8,141:24:20.1,38.6883,30.5477,987.1653,427352.15625,-27.163,53.9042,23.9993,149873000.0972
2019-04-10 17:45:59.257875,-1.4086,-1.1063,-1.8481,-51:37:27.4,141:30:19.5,38.7671,30.4936,987.1621,427353.96875,-27.1449,53.9062,23.8501,149873000.0851
2019-04-10 17:46:00.357711,-0.8366,-0.9114,-2.186,-51:37:26.6,141:36:18.9,38.5342,30.4936,987.1523,427355.71875,-27.1334,54.0065,23.4463,149873000.0645
2019-04-10 17:46:01.464165,-0.4873,-0.6708,-2.2896,-51:37:25.5,141:42:18.3,38.5987,30.5477,987.1836,427357.4375,-26.9161,53.9246,23.5444,149873000.0353
2019-04-10 17:46:02.563542,-0.2223,-0.4309,-2.2892,-51:37:24.1,141:48:17.6,38.8495,30.4576,987.1743,427359.125,-27.0531,53.946,23.9795,149872999.9976
2019-04-10 17:46:03.668542,0.0087,-0.2099,-2.2289,-51:37:22.3,141:54:17.0,38.4482,30.4576,987.1738,427360.75,-27.1972,53.9504,24.2533,149872999.9513
2019-04-10 17:46:04.766987,0.2401,-0.0156,-2.1261,-51:37:20.2,142:00:16.3,38.5951,30.5297,987.188,427362.375,-27.1747,53.6891,23.9909,149872999.8964
2019-04-10 17:46:05.865401,0.4811,0.1457,-1.9883,-51:37:17.8,142:06:15.7,39.3297,30.5117,987.1824,427363.9375,-27.4128,53.647,23.931,149872999.833
2019-04-10 17:46:06.967943,0.7416,0.2611,-1.816,-51:37:12.0,142:18:14.3,38.6847,30.5297,987.1707,427367.0,-27.3481,53.6781,23.7902,149872999.6809
2019-04-10 17:46:08.068631,1.0114,0.3271,-1.6221,-51:37:08.6,142:24:13.6,38.8567,30.6198,987.1621,427368.46875,-27.1844,53.7522,24.1452,149872999.5918
2019-04-10 17:46:09.168956,1.2874,0.3381,-1.4199,-51:37:04.8,142:30:12.9,38.7707,30.5297,987.1772,427369.875,-27.2629,53.8462,24.4073,149872999.4945
2019-04-10 17:46:10.271877,1.5439,0.3,-1.2353,-51:37:00.8,142:36:12.2,38.7062,30.4756,987.2048,427371.28125,-27.4031,53.8282,24.0552,149872999.3886
2019-04-10 17:46:11.370429,1.7755,0.2229,-1.0752,-51:36:56.3,142:42:11.5,39.104,30.4215,987.1899,427372.625,-27.2662,53.4977,24.1919,149872999.2739
2019-04-10 17:46:12.468414,1.9776,0.1196,-0.9433,-51:36:51.6,142:48:10.7,36.3018,30.4395,987.1648,427373.96875,-27.3935,53.7164,23.9545,149872999.151
2019-04-10 17:46:13.574975,2.0762,0.0024,-0.8305,-51:36:46.5,142:54:09.9,38.871,30.4756,987.1689,427375.25,-27.1578,53.6226,23.554,149872999.0194
2019-04-10 17:46:14.684008,2.2444,-0.1252,-0.7404,-51:36:41.1,143:00:09.1,38.76,30.5117,987.1704,427376.5,-27.3846,53.4731,23.3925,149872998.8794
2019-04-10 17:46:15.790866,2.3958,-0.2601,-0.6708,-51:36:35.4,143:06:08.3,39.1147,30.4936,987.1904,427377.71875,-27.3061,53.5671,23.2459,149872998.7308
2019-04-10 17:46:16.890542,2.538,-0.3936,-0.6246,-51:36:29.4,143:12:07.4,38.6059,30.4936,987.166,427378.875,-27.2649,53.5059,23.3973,149872998.5736
2019-04-10 17:46:17.990179,2.8559,-0.6995,-0.6002,-51:36:16.3,143:24:05.6,38.6883,30.5658,987.1631,427381.125,-27.4585,53.6011,23.3993,149872998.2339
2019-04-10 17:46:19.088445,-3.01,-0.9821,-0.7328,-51:36:09.2,143:30:04.6,38.674,30.4035,987.166,427382.1875,-27.2716,53.4957,23.2005,149872998.0511
2019-04-10 17:46:20.190587,-2.2948,-1.1756,-1.1894,-51:36:01.8,143:36:03.6,38.8495,30.4395,987.1736,427383.21875,-27.2619,53.5008,23.1191,149872997.8601
2019-04-10 17:46:21.290105,-1.3701,-1.1445,-1.8706,-51:35:54.1,143:42:02.6,38.8997,30.4035,987.1504,427384.21875,-27.1296,53.3394,23.2364,149872997.6602
2019-04-10 17:46:22.388445,-0.7884,-0.9419,-2.2105,-51:35:46.1,143:48:01.5,39.1649,30.4756,987.1682,427385.1875,-27.0314,53.2454,23.1389,149872997.4521
2019-04-10 17:46:23.487454,-0.4503,-0.6996,-2.3012,-51:35:37.7,143:54:00.4,38.8782,30.4936,987.1521,427386.125,-27.1884,53.372,23.14,149872997.2354
2019-04-10 17:46:24.584916,-0.2015,-0.4556,-2.2914,-51:35:29.0,143:59:59.3,38.2834,30.4936,987.1379,427387.0,-27.0545,53.306,23.2777,149872997.0102
2019-04-10 17:46:25.685908,0.026,-0.2319,-2.2228,-51:35:19.9,144:05:58.1,38.8854,30.5117,987.1619,427387.84375,-27.2753,53.2284,23.5108,149872996.7764
2019-04-10 17:46:26.788779,0.2505,-0.0346,-2.1146,-51:35:10.6,144:11:56.9,38.8818,30.4936,987.1765,427388.65625,-27.6036,53.4267,23.0767,149872996.5344
2019-04-10 17:46:27.891548,0.4867,0.1236,-1.9726,-51:35:00.9,144:17:55.6,38.7492,30.3855,987.1626,427389.4375,-27.4285,53.3465,23.0578,149872996.2835
2019-04-10 17:46:28.990875,0.7411,0.2376,-1.8027,-51:34:40.5,144:29:52.9,38.9248,30.5117,987.1543,427390.90625,-27.5399,53.5094,23.0092,149873013.5903
2019-04-10 17:46:30.089818,1.0045,0.3012,-1.6133,-51:34:29.8,144:35:51.5,38.8997,30.4576,987.1843,427391.5625,-27.4452,53.4026,22.9961,149873013.3139
2019-04-10 17:46:31.187414,1.2686,0.3133,-1.4193,-51:34:18.8,144:41:50.1,39.1004,30.5117,987.155,427392.21875,-27.0538,53.2835,23.2933,149873013.0295
2019-04-10 17:46:32.290359,1.5199,0.2807,-1.2355,-51:34:07.5,144:47:48.6,38.9033,30.4215,987.1533,427392.8125,-27.3648,53.2252,23.5874,149873012.7363
2019-04-10 17:46:33.387631,1.7443,0.2116,-1.0692,-51:33:55.8,144:53:47.0,38.6381,30.4035,987.1536,427393.375,-27.4402,53.1315,23.5452,149873012.4345
2019-04-10 17:46:34.488122,1.9492,0.1122,-0.9328,-51:33:43.8,144:59:45.4,38.7922,30.5658,987.1592,427393.90625,-27.3754,53.4296,23.484,149873012.1245
2019-04-10 17:46:35.585505,2.1311,-0.0066,-0.826,-51:33:31.5,145:05:43.7,39.0502,30.4395,987.1487,427394.375,-26.9151,53.3648,23.2445,149873011.806
2019-04-10 17:46:36.687011,2.2955,-0.1388,-0.742,-51:33:18.8,145:11:42.0,38.4088,30.4035,987.1235,427394.84375,-27.1246,53.2872,22.9069,149873011.479
2019-04-10 17:46:37.793872,2.4523,-0.2754,-0.6838,-51:33:05.8,145:17:40.2,38.785,30.4756,987.1387,427395.25,-27.1875,53.2863,22.9851,149873011.1434
2019-04-10 17:46:38.902928,2.7669,-0.5863,-0.6225,-51:32:52.5,145:23:38.4,39.0036,30.4395,987.1548,427395.65625,-27.1339,53.1123,22.8973,149873010.7996
2019-04-10 17:46:40.001677,-3.1401,-0.882,-0.6971,-51:32:24.9,145:35:34.5,38.6274,30.4576,987.1689,427396.3125,-27.3132,53.1061,22.6751,149873010.0864
2019-04-10 17:46:41.103053,-2.5542,-1.1112,-1.0242,-51:32:10.5,145:41:32.5,38.8352,30.4936,987.1536,427396.5625,-27.3153,53.1297,22.8909,149873009.7171
2019-04-10 17:46:42.202231,-1.6614,-1.1592,-1.6745,-51:31:55.9,145:47:30.4,38.9212,30.4756,987.1643,427396.8125,-27.4226,53.3084,23.133,149873009.3392
2019-04-10 17:46:43.303746,-0.9698,-1.0008,-2.1322,-51:31:40.9,145:53:28.2,39.1971,30.4576,987.1912,427397.03125,-27.2198,53.4387,23.4166,149873008.9531
2019-04-10 17:46:44.403036,-0.5732,-0.7666,-2.2867,-51:31:25.6,145:59:25.9,38.6023,30.3855,987.1709,427397.1875,-27.2746,53.0689,23.0258,149873008.5585
2019-04-10 17:46:45.511242,-0.2894,-0.5212,-2.3082,-51:31:10.0,146:05:23.6,38.6381,30.5658,987.2227,427397.3125,-27.0696,52.6683,22.5683,149873008.1553
2019-04-10 17:46:46.609062,-0.0558,-0.2896,-2.2597,-51:30:54.1,146:11:21.2,38.5199,30.4756,987.1934,427397.40625,-27.1998,52.7908,22.323,149873007.744
2019-04-10 17:46:47.721874,0.1779,-0.0854,-2.1673,-51:30:37.8,146:17:18.8,39.1649,30.5117,987.147,427397.46875,-27.3389,52.8783,22.4155,149873007.3241
2019-04-10 17:46:48.831734,0.419,0.0873,-2.0343,-51:30:21.2,146:23:16.3,38.33,30.4215,987.1716,427397.5,-27.4827,52.9454,22.779,149873006.8958
2019-04-10 17:46:49.929206,0.6735,0.2147,-1.8703,-51:30:04.2,146:29:13.6,38.5665,30.4395,987.1624,427397.46875,-27.7052,53.042,22.6675,149873006.4589
2019-04-10 17:46:51.039896,0.9447,0.293,-1.6797,-51:29:29.4,146:41:08.2,38.7564,30.4395,987.1406,427397.34375,-27.3976,53.0053,22.8557,149873005.5602
2019-04-10 17:46:52.141864,1.2126,0.3177,-1.4816,-51:29:11.5,146:47:05.4,39.3333,30.4936,987.1912,427397.21875,-27.4513,52.9749,23.0815,149873005.0984
2019-04-10 17:46:53.241627,1.4731,0.2931,-1.2935,-51:28:53.2,146:53:02.4,38.8531,30.4756,987.2163,427397.0625,-27.428,52.7322,22.9803,149873004.6281
2019-04-10 17:46:54.347862,1.7086,0.2277,-1.1269,-51:28:34.7,146:58:59.4,39.2437,30.5297,987.1948,427396.875,-27.1489,52.8476,23.0541,149873004.1493
2019-04-10 17:46:55.454349,1.9185,0.1302,-0.9854,-51:28:15.8,147:04:56.3,38.8639,30.3674,987.176,427396.625,-27.1271,52.9947,22.7548,149873003.6624
2019-04-10 17:46:56.552403,2.1001,0.016,-0.8719,-51:27:56.5,147:10:53.2,39.0538,30.3674,987.1514,427396.375,-27.1432,53.0181,22.6394,149873003.1669
2019-04-10 17:46:57.655347,2.2657,-0.1135,-0.7831,-51:27:37.0,147:16:49.9,38.717,30.4756,987.1829,427396.0625,-27.1378,52.7534,22.5303,149873002.6629
2019-04-10 17:46:58.761150,2.4169,-0.251,-0.7168,-51:27:17.1,147:22:46.5,38.7062,30.4936,987.2122,427395.71875,-27.3356,52.5832,22.2047,149873002.1508
2019-04-10 17:46:59.867653,2.5619,-0.3908,-0.6737,-51:26:56.9,147:28:43.1,38.8746,30.4395,987.2024,427395.34375,-27.5376,52.5456,22.2561,149873001.6301
2019-04-10 17:47:00.966347,2.8841,-0.6991,-0.656,-51:26:15.5,147:40:35.9,39.2079,30.4215,987.1809,427394.5,-27.4643,52.6947,22.1734,149873000.564
2019-04-10 17:47:02.065636,-2.9755,-0.9794,-0.7962,-51:25:54.3,147:46:32.1,38.8531,30.5838,987.1428,427394.0,-27.4091,52.5624,22.49,149873000.0185
2019-04-10 17:47:03.165879,-2.2541,-1.1628,-1.2619,-51:25:32.8,147:52:28.3,38.8925,30.4215,987.1729,427393.5,-27.3051,52.8611,22.2862,149872999.4645
2019-04-10 17:47:04.271198,-1.3475,-1.1251,-1.9272,-51:25:11.0,147:58:24.4,39.0753,30.4035,987.1646,427392.9375,-27.4215,53.1183,22.1111,149873016.7358
2019-04-10 17:47:05.369782,-0.7834,-0.9222,-2.2502,-51:24:48.8,148:04:20.4,38.674,30.4936,987.1675,427392.34375,-27.4414,52.8457,22.037,149873016.1652
2019-04-10 17:47:06.468745,-0.4456,-0.6768,-2.3422,-51:24:26.3,148:10:16.3,39.1111,30.3314,987.1421,427391.71875,-27.6348,52.9623,22.0356,149873015.5861
2019-04-10 17:47:07.572075,-0.1908,-0.4342,-2.3282,-51:24:03.5,148:16:12.0,38.7098,30.4576,987.168,427391.0625,-27.5285,52.754,22.4127,149873014.9988
2019-04-10 17:47:08.678874,0.0398,-0.2087,-2.261,-51:23:40.3,148:22:07.7,38.7205,30.3494,987.1531,427390.375,-27.6416,53.0409,22.1346,149873014.4034
2019-04-10 17:47:09.784394,0.2687,-0.0144,-2.1485,-51:23:16.9,148:28:03.3,38.8495,30.4215,987.1611,427389.625,-27.7293,52.953,22.3436,149873013.7995
2019-04-10 17:47:10.884263,0.5068,0.1419,-2.003,-51:22:53.1,148:33:58.7,38.7277,30.5477,987.1509,427388.875,-27.5686,52.7086,22.152,149873013.1874
2019-04-10 17:47:11.986438,0.6763,0.2632,-1.8296,-51:22:04.5,148:45:49.3,39.2831,30.4215,987.1526,427387.21875,-27.4702,52.6636,22.1099,149873011.9382
2019-04-10 17:47:13.084928,0.9504,0.3378,-1.6381,-51:21:39.8,148:51:44.5,39.1362,30.4756,987.1321,427386.34375,-27.5386,53.0121,22.0577,149873011.3014
2019-04-10 17:47:14.188077,1.2312,0.362,-1.4366,-51:21:14.7,148:57:39.5,38.5557,30.4035,987.1399,427385.4375,-27.3224,52.6933,22.1548,149873010.6561
2019-04-10 17:47:15.292971,1.5,0.331,-1.2454,-51:20:49.2,149:03:34.4,38.4124,30.4395,987.1418,427384.46875,-27.1877,52.569,21.9866,149873010.0027
2019-04-10 17:47:16.390931,1.7403,0.2604,-1.0817,-51:20:23.5,149:09:29.1,38.9821,30.3855,987.1548,427383.5,-27.3826,52.3833,22.148,149873009.3411
2019-04-10 17:47:17.489654,1.9545,0.1584,-0.9435,-51:19:57.4,149:15:23.8,38.7958,30.4756,987.1611,427382.46875,-27.5029,52.3258,22.1057,149873008.6711
2019-04-10 17:47:18.586703,2.1448,0.0385,-0.8388,-51:19:31.1,149:21:18.4,38.674,30.4756,987.1458,427381.40625,-27.3414,52.7016,22.0074,149873007.993
2019-04-10 17:47:19.688647,2.3148,-0.0935,-0.7634,-51:19:04.4,149:27:12.8,38.4088,30.4936,987.1528,427380.3125,-27.6,52.8153,21.996,149873007.3064
2019-04-10 17:47:20.787643,2.4712,-0.2312,-0.7113,-51:18:37.3,149:33:07.1,39.0538,30.5117,987.1331,427379.1875,-27.6091,52.6791,22.1468,149873006.6119
2019-04-10 17:47:21.894992,2.6169,-0.3733,-0.6798,-51:18:10.0,149:39:01.3,38.9785,30.5117,987.1377,427378.03125,-27.7022,52.8698,22.4602,149873005.9091
2019-04-10 17:47:22.993716,2.9535,-0.6751,-0.6832,-51:17:14.3,149:50:49.4,38.76,30.3855,987.1584,427375.59375,-27.7161,52.7293,22.047,149873004.4786
2019-04-10 17:47:24.094524,-2.8911,-0.9465,-0.8461,-51:16:46.0,149:56:43.2,38.7815,30.4035,987.175,427374.34375,-27.7515,52.4774,21.8052,149873003.7511
2019-04-10 17:47:25.194109,-2.1982,-1.1134,-1.2935,-51:16:17.3,150:02:36.9,38.6632,30.3494,987.1606,427373.03125,-27.764,52.4164,22.0159,149873003.0154
2019-04-10 17:47:26.296098,-1.3783,-1.0727,-1.8803,-51:15:48.4,150:08:30.4,38.7707,30.4215,987.168,427371.6875,-27.8459,52.3992,21.9759,149873002.2716
2019-04-10 17:47:27.403081,-0.8312,-0.8807,-2.1956,-51:15:19.1,150:14:23.8,38.957,30.4756,987.1548,427370.3125,-27.7626,52.4573,21.9298,149873001.5198
2019-04-10 17:47:28.502121,-0.4861,-0.6422,-2.2955,-51:14:49.5,150:20:17.2,38.5593,30.5477,987.1345,427368.90625,-27.8291,52.6383,21.897,149873000.7594
2019-04-10 17:47:29.600880,-0.221,-0.4003,-2.2944,-51:14:19.5,150:26:10.3,39.0466,30.3855,987.1553,427367.4375,-27.6309,52.3078,21.4829,149872999.9913
2019-04-10 17:47:30.703300,0.0149,-0.1765,-2.2325,-51:13:49.3,150:32:03.4,38.9821,30.4215,987.1521,427365.96875,-27.5173,51.9209,21.4896,149872999.2148
2019-04-10 17:47:31.805096,0.2483,0.0181,-2.1259,-51:13:18.7,150:37:56.3,38.8245,30.3674,987.1394,427364.4375,-27.6352,51.8658,21.7097,149872998.4302
2019-04-10 17:47:32.904321,0.4925,0.176,-1.9827,-51:12:47.8,150:43:49.1,39.0645,30.3855,987.1382,427362.875,-27.5655,51.9936,21.6831,149872997.6378
2019-04-10 17:47:34.013809,0.7628,0.2891,-1.8077,-51:11:45.1,150:55:34.2,38.9069,30.4035,987.1565,427359.65625,-27.5703,51.9351,21.3285,149872996.0281
2019-04-10 17:47:35.113152,1.0406,0.3447,-1.6135,-51:11:13.2,151:01:26.5,38.8388,30.3314,987.1416,427358.0,-27.5955,51.8691,21.3347,149872995.2111
2019-04-10 17:47:36.211353,1.3118,0.3493,-1.4172,-51:10:41.0,151:07:18.7,38.9427,30.4395,987.1724,427356.3125,-27.5293,51.8635,21.4863,149872994.386
2019-04-10 17:47:37.314240,1.5692,0.3069,-1.2313,-51:10:08.5,151:13:10.8,38.8925,30.3855,987.1482,427354.5625,-27.3496,51.6975,20.9887,149872993.5528
2019-04-10 17:47:38.414831,1.799,0.2268,-1.0718,-51:09:35.7,151:19:02.7,38.6274,30.3494,987.1504,427352.78125,-27.7382,52.2475,21.0956,149872992.7116
2019-04-10 17:47:39.524942,2.0038,0.1189,-0.9446,-51:09:02.6,151:24:54.5,38.7026,30.4035,987.1431,427351.0,-27.83,51.7654,20.8222,149872991.8623
2019-04-10 17:47:40.623739,2.1822,-0.0054,-0.8447,-51:08:29.1,151:30:46.1,38.8746,30.4215,987.1572,427349.15625,-27.8083,51.8697,21.274,149872991.0049
2019-04-10 17:47:41.725548,2.3452,-0.1393,-0.7701,-51:07:55.4,151:36:37.6,39.1756,30.3314,987.1614,427347.28125,-27.8093,51.9782,21.2248,149873007.9729
2019-04-10 17:47:42.830480,2.4962,-0.2794,-0.7169,-51:07:21.3,151:42:28.9,38.9714,30.3494,987.2251,427345.34375,-27.6918,51.6801,21.4119,149873007.0994
2019-04-10 17:47:43.930682,2.8147,-0.5909,-0.6726,-51:06:46.9,151:48:20.1,38.8854,30.4395,987.1621,427343.40625,-27.5647,51.7791,21.2587,149873006.2182
2019-04-10 17:47:45.030037,-3.08,-0.8816,-0.7641,-51:05:37.1,152:00:02.0,38.9212,30.3494,987.1301,427339.40625,-27.9229,51.7609,21.5384,149873004.4311
2019-04-10 17:47:46.133259,-2.4689,-1.096,-1.1157,-51:05:01.7,152:05:52.6,38.6059,30.2953,987.156,427337.34375,-27.7591,51.7639,21.6656,149873003.5257
2019-04-10 17:47:47.244336,-1.6056,-1.1304,-1.7377,-51:04:26.1,152:11:43.2,38.7349,30.3855,987.1497,427335.25,-27.8902,51.9011,21.4355,149873002.6123
2019-04-10 17:47:48.341856,-0.9491,-0.9664,-2.1555,-51:03:50.1,152:17:33.6,38.6489,30.3855,987.1521,427333.125,-27.8941,51.3404,21.0074,149873001.6907
2019-04-10 17:47:49.451561,-0.554,-0.7282,-2.3057,-51:03:13.8,152:23:23.9,38.9857,30.5297,987.1628,427330.96875,-28.0096,51.6012,20.9977,149873000.7615
2019-04-10 17:47:50.550622,-0.2796,-0.491,-2.3219,-51:02:37.1,152:29:14.0,39.0144,30.5477,987.144,427328.78125,-28.0248,51.7277,21.0244,149872999.8239
2019-04-10 17:47:51.647827,-0.0428,-0.2628,-2.2709,-51:02:00.2,152:35:03.9,39.2796,30.4215,987.1658,427326.5625,-28.0716,51.7169,21.0085,149872998.8789
2019-04-10 17:47:52.746864,0.1867,-0.0634,-2.1747,-51:01:22.9,152:40:53.6,38.5521,30.4576,987.1404,427324.28125,-27.9653,51.7373,21.3696,149872997.9255
2019-04-10 17:47:53.852855,0.4282,0.106,-2.0409,-51:00:45.4,152:46:43.2,38.8173,30.3314,987.1611,427321.96875,-27.9106,52.1563,21.5914,149872996.9645
2019-04-10 17:47:54.956167,0.6827,0.2333,-1.8731,-50:59:29.3,152:58:21.9,39.0036,30.3494,987.1614,427317.28125,-28.0637,52.2643,21.9263,149872995.0182
2019-04-10 17:47:56.057079,0.9497,0.3094,-1.6815,-50:58:50.7,153:04:11.0,38.7671,30.4215,987.1499,427314.875,-28.0116,51.9638,21.7989,149872994.0334
2019-04-10 17:47:57.162900,1.2226,0.3333,-1.4799,-50:58:11.9,153:09:59.9,39.2473,30.3855,987.1597,427312.40625,-27.9233,52.0784,21.6888,149872993.0406
2019-04-10 17:47:58.264297,1.4826,0.3085,-1.2874,-50:57:32.8,153:15:48.7,39.0896,30.3674,987.1814,427309.9375,-27.8994,52.0021,20.9737,149872992.0401
2019-04-10 17:47:59.374320,1.7264,0.2387,-1.1171,-50:56:53.3,153:21:37.3,39.0251,30.4035,987.1653,427307.4375,-27.8588,51.9509,21.15,149872991.0316
2019-04-10 17:48:00.474512,1.9353,0.1406,-0.9792,-50:56:13.5,153:27:25.7,39.0968,30.3494,987.1831,427304.875,-28.0043,51.7994,21.1115,149872990.0151
2019-04-10 17:48:01.575351,2.1195,0.0224,-0.8662,-50:55:33.4,153:33:13.9,38.9355,30.4215,987.2092,427302.28125,-27.8973,51.9836,21.0654,149872988.9909
2019-04-10 17:48:02.674701,2.2832,-0.107,-0.7825,-50:54:53.0,153:39:02.0,39.0825,30.4756,987.1702,427299.6875,-27.8595,52.6501,21.2764,149872987.959
2019-04-10 17:48:03.780169,2.4371,-0.2433,-0.7229,-50:54:12.3,153:44:49.9,38.7241,30.3494,987.1501,427297.03125,-27.7967,52.2238,21.1125,149872986.9191
2019-04-10 17:48:04.879029,2.5862,-0.3792,-0.6886,-50:53:31.3,153:50:37.6,39.1577,30.4035,987.1602,427294.34375,-27.8574,51.8723,21.3886,149872985.8715
2019-04-10 17:48:05.978253,2.9142,-0.6856,-0.6801,-50:52:08.3,154:02:12.5,38.9391,30.3494,987.2063,427288.84375,-28.1135,51.974,21.2175,149872983.7528
2019-04-10 17:48:07.080820,-2.9418,-0.9633,-0.8233,-50:51:26.3,154:07:59.7,38.8245,30.4035,987.1929,427286.0625,-28.0797,51.9754,21.0769,149872982.6817
2019-04-10 17:48:08.181925,-2.239,-1.1364,-1.2768,-50:50:44.0,154:13:46.7,38.9893,30.4576,987.1968,427283.21875,-27.9866,51.6708,21.0658,149872981.6029
2019-04-10 17:48:09.282639,-1.3783,-1.0978,-1.9021,-50:50:01.4,154:19:33.5,38.9355,30.4215,987.1555,427280.34375,-27.8825,51.4542,21.2743,149872980.5164
2019-04-10 17:48:10.382916,-0.8153,-0.903,-2.2312,-50:49:18.5,154:25:20.1,38.8567,30.4215,987.1638,427277.4375,-27.848,51.2481,21.13,149872979.4223
2019-04-10 17:48:11.483195,-0.4707,-0.6619,-2.3291,-50:48:35.3,154:31:06.5,39.1685,30.2592,987.1541,427274.5,-27.7803,51.4686,20.9589,149872978.3202
2019-04-10 17:48:12.581489,-0.213,-0.4234,-2.323,-50:47:51.8,154:36:52.8,39.1541,30.4395,987.1274,427271.53125,-27.8965,51.5208,20.8318,149872977.2105
2019-04-10 17:48:13.678775,0.0188,-0.1998,-2.2595,-50:47:08.0,154:42:38.9,39.1398,30.4576,987.1555,427268.53125,-28.0684,51.4867,20.0734,149872976.0931
2019-04-10 17:48:14.784512,0.2515,-0.0032,-2.1517,-50:46:23.8,154:48:24.7,38.7886,30.3855,987.136,427265.5,-27.8644,51.2862,20.1426,149872974.9678
2019-04-10 17:48:15.884908,0.4922,0.1534,-2.0085,-50:45:39.4,154:54:10.4,39.0215,30.4395,987.1335,427262.40625,-27.6551,51.2111,20.4355,149872973.8352
2019-04-10 17:48:16.984694,0.7482,0.2663,-1.8351,-50:44:09.5,155:05:41.2,39.0538,30.4215,987.1379,427256.15625,-27.7973,51.3855,20.7008,149872971.5465
2019-04-10 17:48:18.083306,1.0176,0.3288,-1.64,-50:43:24.2,155:11:26.4,38.8495,30.3674,987.1238,427252.96875,-27.6854,51.0711,20.6414,149872988.2242
2019-04-10 17:48:19.182276,1.2886,0.338,-1.4424,-50:42:38.5,155:17:11.2,38.9069,30.3855,987.1187,427249.75,-27.6215,51.11,20.9956,149872987.0609
2019-04-10 17:48:20.288032,1.5471,0.2989,-1.2571,-50:41:52.5,155:22:56.0,38.8388,30.3855,987.1423,427246.5,-27.5691,51.1567,20.6838,149872985.8899
2019-04-10 17:48:21.386390,1.7752,0.2229,-1.0953,-50:41:06.2,155:28:40.5,39.0502,30.2773,987.1577,427243.21875,-27.6169,50.9361,20.5826,149872984.7113
2019-04-10 17:48:22.485872,1.9793,0.1182,-0.9655,-50:40:19.6,155:34:24.8,38.7922,30.4215,987.1599,427239.90625,-27.8114,50.6016,20.7223,149872983.5248
2019-04-10 17:48:23.588987,2.1611,-0.0062,-0.8619,-50:39:32.6,155:40:08.9,39.3942,30.4215,987.167,427236.5625,-28.0553,50.8656,20.9689,149872982.331
2019-04-10 17:48:24.699472,2.3237,-0.1396,-0.7836,-50:38:45.4,155:45:52.9,38.914,30.2953,987.1743,427233.15625,-28.0565,50.8895,21.015,149872981.1296
2019-04-10 17:48:25.807668,2.4772,-0.279,-0.7296,-50:37:57.9,155:51:36.6,38.8639,30.3314,987.1609,427229.75,-27.9544,50.9955,21.1131,149872979.9207
2019-04-10 17:48:26.913583,2.7988,-0.5883,-0.6858,-50:37:10.1,155:57:20.1,39.0896,30.4395,987.1748,427226.28125,-27.931,50.8284,21.9041,149872978.7042
2019-04-10 17:48:28.013206,-3.0958,-0.8826,-0.7735,-50:35:33.5,156:08:46.6,38.914,30.3133,987.1475,427219.25,-27.8533,50.6813,21.6143,149872976.2487
2019-04-10 17:48:29.115977,-2.4892,-1.101,-1.1204,-50:34:44.7,156:14:29.5,39.1434,30.3855,987.1665,427215.6875,-27.8709,50.6803,21.5036,149872975.0095
2019-04-10 17:48:30.217795,-1.6171,-1.135,-1.7544,-50:33:55.7,156:20:12.2,39.0072,30.4576,987.1602,427212.09375,-27.6028,50.6357,21.2438,149872973.763
2019-04-10 17:48:31.319015,-0.9571,-0.9717,-2.1815,-50:33:06.3,156:25:54.7,39.5304,30.4936,987.1455,427208.46875,-27.9173,50.8675,21.1621,149872972.5089
2019-04-10 17:48:32.419591,-0.5676,-0.7383,-2.3275,-50:32:16.6,156:31:36.9,38.7815,30.3674,987.134,427204.78125,-28.1291,50.6819,20.918,149872971.2474
2019-04-10 17:48:33.530438,-0.2864,-0.4964,-2.3489,-50:31:26.7,156:37:19.0,38.4912,30.4035,987.1626,427201.09375,-28.0803,50.579,21.2851,149872969.9782
2019-04-10 17:48:34.629408,-0.0529,-0.2662,-2.2992,-50:30:36.4,156:43:00.9,39.1147,30.3674,987.168,427197.34375,-28.1081,50.4748,21.107,149872968.7019
2019-04-10 17:48:35.727928,0.1757,-0.0642,-2.2057,-50:29:45.8,156:48:42.5,38.7707,30.3314,987.1731,427193.5625,-28.0646,50.4075,20.884,149872967.418
2019-04-10 17:48:36.835388,0.4143,0.1045,-2.0743,-50:28:54.9,156:54:24.0,38.4052,30.3674,987.1477,427189.78125,-28.2873,50.301,20.9301,149872966.1268
2019-04-10 17:48:37.937730,0.6665,0.2292,-1.9109,-50:28:03.7,157:00:05.2,39.0896,30.3133,987.1753,427185.9375,-28.3168,50.429,21.1394,149872964.8282
2019-04-10 17:48:39.035820,0.9288,0.3099,-1.7229,-50:26:20.5,157:11:27.0,39.1434,30.2953,987.1633,427178.15625,-28.2493,50.2276,20.6534,149872962.2086
2019-04-10 17:48:40.142237,1.2021,0.3333,-1.5231,-50:25:28.4,157:17:07.6,39.1075,30.2953,987.1299,427174.1875,-28.1783,50.1108,20.6545,149872960.8878
2019-04-10 17:48:41.250133,1.4634,0.3083,-1.333,-50:24:36.0,157:22:48.0,38.6775,30.3133,987.218,427170.21875,-28.204,49.9325,20.5919,149872959.5594
2019-04-10 17:48:42.354130,1.6997,0.2435,-1.1598,-50:23:43.3,157:28:28.1,38.8603,30.2773,987.2432,427166.21875,-28.1656,49.8577,20.7066,149872958.2241
2019-04-10 17:48:43.451234,1.9128,0.1479,-1.0218,-50:22:50.3,157:34:08.0,39.0896,30.4576,987.1531,427162.15625,-28.237,49.921,20.6107,149872956.881
2019-04-10 17:48:44.550263,2.0989,0.0316,-0.9129,-50:21:57.0,157:39:47.7,38.8567,30.4395,987.1724,427158.0625,-28.2915,50.0353,20.4567,149872955.5311
2019-04-10 17:48:45.648680,2.2674,-0.0973,-0.8268,-50:21:03.4,157:45:27.2,38.914,30.3314,987.1816,427153.96875,-28.4362,50.1888,20.3919,149872954.1736
2019-04-10 17:48:46.746104,2.4205,-0.2331,-0.7642,-50:20:09.5,157:51:06.4,39.3656,30.2412,987.1631,427149.8125,-28.2714,50.0216,20.4162,149872952.8087
2019-04-10 17:48:47.857602,2.5694,-0.3742,-0.7198,-50:19:15.3,157:56:45.5,39.2509,30.3314,987.1519,427145.625,-28.3036,50.1808,20.2725,149872951.4366
2019-04-10 17:48:48.961019,2.8962,-0.6793,-0.7055,-50:17:26.1,158:08:02.9,38.7134,30.3314,987.1455,427137.15625,-28.3518,50.2294,20.4294,149872948.671
2019-04-10 17:48:50.064635,-2.9614,-0.9599,-0.8487,-50:16:31.0,158:13:41.2,39.061,30.3133,987.1455,427132.84375,-28.1589,50.3095,20.7287,149872947.2771
2019-04-10 17:48:51.166334,-2.2653,-1.1388,-1.2905,-50:15:35.6,158:19:19.4,39.043,30.4576,987.1426,427128.53125,-28.2239,50.1411,20.7152,149872945.8764
2019-04-10 17:48:52.264452,-1.3924,-1.1079,-1.9279,-50:14:39.9,158:24:57.3,38.9965,30.3855,987.1597,427124.1875,-28.211,50.3436,20.699,149872944.4683
2019-04-10 17:48:53.378064,-0.8222,-0.9118,-2.2592,-50:13:43.9,158:30:34.9,38.7241,30.3855,987.1594,427119.78125,-28.2065,50.0418,20.2541,149872943.0527
2019-04-10 17:48:54.477833,-0.4756,-0.6708,-2.3579,-50:12:47.7,158:36:12.4,38.9176,30.2773,987.1858,427115.375,-28.0299,50.3119,20.2332,149872941.6303
2019-04-10 17:48:55.578324,-0.2172,-0.4286,-2.352,-50:11:51.1,158:41:49.6,39.0968,30.4576,987.1729,427110.90625,-28.1534,49.9507,20.1825,149872958.0342
2019-04-10 17:48:56.675416,0.0119,-0.2075,-2.2871,-50:10:54.2,158:47:26.6,39.2473,30.3855,987.1775,427106.40625,-28.375,50.0563,20.1694,149872956.5973
2019-04-10 17:48:57.781114,0.2416,-0.0118,-2.1798,-50:09:57.1,158:53:03.3,38.6883,30.3494,987.1582,427101.875,-28.5278,49.8526,20.0964,149872955.1535
2019-04-10 17:48:58.881256,0.4827,0.1441,-2.0388,-50:08:59.6,158:58:39.8,39.3656,30.3855,987.1619,427097.3125,-28.7108,50.0765,19.9709,149872953.7023
2019-04-10 17:48:59.980741,0.7374,0.2596,-1.8666,-50:07:03.8,159:09:52.1,38.9463,30.3494,987.1558,427088.09375,-28.7112,50.0043,20.1309,149872950.779
2019-04-10 17:49:01.081540,1.0079,0.3216,-1.6738,-50:06:05.5,159:15:27.9,38.7671,30.3855,987.1697,427083.4375,-28.4463,49.9138,20.1899,149872949.3068
2019-04-10 17:49:02.181675,1.2776,0.3348,-1.4749,-50:05:06.8,159:21:03.5,38.7886,30.4035,987.1572,427078.71875,-28.3673,49.9193,19.8419,149872947.8272
2019-04-10 17:49:03.280912,1.5316,0.2979,-1.2883,-50:04:07.9,159:26:38.8,39.1756,30.3855,987.1792,427074.0,-28.584,49.9159,19.841,149872946.3409
2019-04-10 17:49:04.383022,1.7686,0.2228,-1.1283,-50:03:08.7,159:32:13.9,38.9033,30.2953,987.1516,427069.25,-28.8026,50.0267,19.7336,149872944.8475
2019-04-10 17:49:05.481162,1.9705,0.121,-0.9956,-50:02:09.2,159:37:48.7,38.7815,30.3674,987.145,427064.4375,-28.6319,50.0956,19.9594,149872943.347
2019-04-10 17:49:06.581488,2.1537,-0.0001,-0.8914,-50:01:09.4,159:43:23.3,38.7062,30.4035,987.167,427059.59375,-28.5279,50.1565,20.1794,149872941.8398
2019-04-10 17:49:07.684780,2.3201,-0.1342,-0.8115,-50:00:09.2,159:48:57.7,40.179,30.3133,987.1726,427054.75,-28.3985,50.0717,20.669,149872940.3251
2019-04-10 17:49:08.796204,2.4715,-0.273,-0.7552,-49:59:08.9,159:54:31.8,39.2939,30.2953,987.1692,427049.84375,-28.48,50.2037,20.5548,149872938.8038
2019-04-10 17:49:09.900537,2.6148,-0.4122,-0.7213,-49:58:08.2,160:00:05.6,38.9176,30.3314,987.1506,427044.90625,-28.4336,50.0042,20.3961,149872937.2757
2019-04-10 17:49:11.004570,2.955,-0.7186,-0.7319,-49:56:05.9,160:11:12.6,38.9212,30.3674,987.1333,427034.9375,-28.492,49.9376,20.2461,149872934.1981
2019-04-10 17:49:12.108644,-2.8702,-0.9903,-0.9114,-49:55:04.4,160:16:45.8,39.0108,30.3855,987.1687,427029.90625,-28.4181,49.6482,20.0084,149872932.6489
2019-04-10 17:49:13.210221,-2.1295,-1.1411,-1.4049,-49:54:02.5,160:22:18.6,38.846,30.1871,987.1587,427024.8125,-28.2628,49.7884,19.783,149872931.093
2019-04-10 17:49:14.309724,-1.2999,-1.0757,-1.997,-49:53:00.4,160:27:51.3,38.8065,30.3494,987.1382,427019.71875,-28.2147,49.6448,19.8989,149872929.5304
2019-04-10 17:49:15.412679,-0.7726,-0.8724,-2.2854,-49:51:58.0,160:33:23.7,39.1326,30.2412,987.1282,427014.59375,-28.1888,49.4956,19.9369,149872927.9604
2019-04-10 17:49:16.515800,-0.4445,-0.6327,-2.3656,-49:50:55.3,160:38:55.8,39.3082,30.3674,987.1714,427009.40625,-28.0461,49.3139,19.9252,149872926.3841
2019-04-10 17:49:17.619909,-0.1924,-0.3901,-2.3522,-49:49:52.3,160:44:27.7,39.0108,30.3674,987.1633,427004.21875,-28.4448,49.7333,19.5555,149872924.8007
2019-04-10 17:49:18.730236,0.0393,-0.1679,-2.2824,-49:48:49.0,160:49:59.3,38.8137,30.3674,987.1794,426998.96875,-28.2779,49.4678,19.4027,149872923.2104
2019-04-10 17:49:19.829128,0.2682,0.0215,-2.1728,-49:47:45.4,160:55:30.7,38.8567,30.2773,987.1636,426993.6875,-28.4219,49.5236,19.665,149872921.6134
2019-04-10 17:49:20.937476,0.5178,0.1725,-2.027,-49:46:41.6,161:01:01.8,39.043,30.3494,987.1733,426988.40625,-28.6423,49.2155,20.1005,149872920.0097
2019-04-10 17:49:22.035021,0.7791,0.2787,-1.8513,-49:44:33.0,161:12:03.3,38.8173,30.3314,987.157,426977.6875,-28.6228,49.3155,19.3647,149872916.7817
2019-04-10 17:49:23.139504,1.0534,0.3362,-1.6549,-49:43:28.3,161:17:33.7,39.1828,30.3674,987.1641,426972.28125,-28.5913,49.1309,19.7319,149872915.1577
2019-04-10 17:49:24.242115,1.3201,0.3411,-1.4548,-49:42:23.3,161:23:03.8,38.7277,30.2953,987.156,426966.84375,-28.6676,48.9955,19.4579,149872913.527
2019-04-10 17:49:25.343764,1.5723,0.296,-1.2746,-49:41:18.0,161:28:33.6,39.2365,30.3674,987.1714,426961.375,-28.6262,49.2723,19.3977,149872911.8897
2019-04-10 17:49:26.447840,1.7992,0.2145,-1.1155,-49:40:12.4,161:34:03.2,38.8101,30.3314,987.1572,426955.875,-28.5544,49.3568,19.59,149872910.2455
2019-04-10 17:49:27.546502,1.9997,0.1093,-0.9866,-49:39:06.5,161:39:32.5,38.8173,30.2953,987.1663,426950.34375,-28.521,49.2161,19.7199,149872908.5946
2019-04-10 17:49:28.657017,2.1851,-0.017,-0.8866,-49:38:00.4,161:45:01.6,38.7922,30.3314,987.1477,426944.75,-28.7021,49.3015,19.7782,149872906.9371
2019-04-10 17:49:29.756412,2.3454,-0.1501,-0.8117,-49:36:54.0,161:50:30.4,38.9248,30.2953,987.1731,426939.15625,-28.6805,49.3259,19.8246,149872905.2733
2019-04-10 17:49:30.856616,2.4942,-0.2882,-0.7599,-49:35:47.3,161:55:59.0,38.846,30.2592,987.1514,426933.5,-28.477,49.1094,19.7049,149872903.6026
2019-04-10 17:49:31.957503,2.8178,-0.5967,-0.7207,-49:34:40.3,162:01:27.3,38.7528,30.4035,987.1533,426927.84375,-28.4908,49.1321,19.5347,149872901.9252
2019-04-10 17:49:33.056594,-3.0807,-0.8853,-0.8105,-49:32:25.5,162:12:23.1,39.043,30.3494,987.1431,426916.40625,-28.5183,49.0558,19.3403,149872916.3842
2019-04-10 17:49:34.160281,-2.4751,-1.0994,-1.1608,-49:31:17.6,162:17:50.6,39.2616,30.2953,987.1604,426910.625,-28.7231,49.0703,19.3185,149872914.687
2019-04-10 17:49:35.264053,-1.6097,-1.1272,-1.7864,-49:30:09.5,162:23:17.8,38.9857,30.4215,987.1445,426904.8125,-28.6993,48.9754,19.4612,149872912.9836
2019-04-10 17:49:36.365055,-0.96,-0.9645,-2.2002,-49:29:01.1,162:28:44.8,37.8784,30.3133,987.1614,426899.0,-28.64,48.5708,19.3642,149872911.2736
2019-04-10 17:49:37.467839,-0.5688,-0.7313,-2.3516,-49:27:52.4,162:34:11.5,39.0968,30.2953,987.157,426893.125,-28.8002,48.5974,19.4079,149872909.5567
2019-04-10 17:49:38.574339,-0.3685,-0.4891,-2.3829,-49:26:43.5,162:39:37.9,38.8209,30.4035,987.1541,426887.21875,-28.5116,48.4154,19.6108,149872907.8339
2019-04-10 17:49:39.674003,-0.1214,-0.2556,-2.3508,-49:25:34.2,162:45:04.1,38.932,30.3133,987.1724,426881.28125,-28.4229,48.6812,19.3948,149872906.1042
2019-04-10 17:49:40.773548,0.1875,-0.0486,-2.2594,-49:24:24.7,162:50:30.0,39.0072,30.3674,987.1733,426875.3125,-28.3552,48.523,18.9744,149872904.3682
2019-04-10 17:49:41.873470,0.426,0.1168,-2.1252,-49:23:14.9,162:55:55.6,39.4229,30.2953,987.1841,426869.3125,-28.4702,48.5752,19.0206,149872902.6257
2019-04-10 17:49:42.975687,0.6816,0.2406,-1.9573,-49:20:54.5,163:06:46.1,38.7707,30.3133,987.1907,426857.21875,-28.2932,48.8163,19.2066,149872899.1214
2019-04-10 17:49:44.076978,0.9486,0.3166,-1.7643,-49:19:43.9,163:12:10.9,38.9535,30.2953,987.1794,426851.125,-28.2989,48.5566,19.6621,149872897.3596
2019-04-10 17:49:45.183764,1.2194,0.3393,-1.5637,-49:18:33.0,163:17:35.5,39.4014,30.3494,987.196,426844.96875,-28.3555,48.6558,19.6579,149872895.5916
2019-04-10 17:49:46.287520,1.4805,0.3108,-1.3689,-49:17:21.8,163:22:59.7,39.4766,30.3494,987.1624,426838.8125,-28.5585,48.3183,18.8851,149872893.8171
2019-04-10 17:49:47.394446,1.7223,0.2408,-1.1982,-49:16:10.3,163:28:23.8,38.9033,30.3494,987.1763,426832.625,-28.7956,48.4367,19.0324,149872892.0363
2019-04-10 17:49:48.496906,1.9302,0.1408,-1.06,-49:14:58.6,163:33:47.5,38.7635,30.2773,987.1606,426826.375,-28.8093,47.7313,19.2121,149872890.2491
2019-04-10 17:49:49.597006,2.1142,0.022,-0.9492,-49:13:46.6,163:39:10.9,39.4587,30.3133,987.1626,426820.125,-29.0016,47.8778,19.6469,149872888.4556
2019-04-10 17:49:50.703873,2.2734,-0.1081,-0.8642,-49:12:34.3,163:44:34.1,39.1255,30.3494,987.1353,426813.8125,-28.8076,48.2012,19.6214,149872886.656
2019-04-10 17:49:51.803819,2.4269,-0.2448,-0.8053,-49:11:21.7,163:49:57.0,38.8245,30.2773,987.1326,426807.5,-28.848,47.9231,19.0379,149872884.8499
2019-04-10 17:49:52.911638,2.5706,-0.3847,-0.7634,-49:10:08.9,163:55:19.7,38.9857,30.2953,987.1621,426801.125,-28.9027,47.7367,18.9899,149872883.0377
2019-04-10 17:49:54.018213,2.8911,-0.692,-0.7419,-49:07:42.4,164:06:04.1,38.957,30.3494,987.199,426788.3125,-28.4698,47.5709,18.6691,149872879.3943
2019-04-10 17:49:55.116816,-2.9659,-0.9722,-0.8827,-49:06:28.8,164:11:25.9,39.0896,30.4035,987.1506,426781.875,-28.3957,47.5307,18.8783,149872877.5633
2019-04-10 17:49:56.220685,-2.2568,-1.1531,-1.3376,-49:05:14.9,164:16:47.4,38.9642,30.2592,987.1509,426775.375,-28.2808,47.6751,18.3577,149872875.7264
2019-04-10 17:49:57.324815,-1.3727,-1.1185,-1.985,-49:04:00.7,164:22:08.7,38.9212,30.2232,987.1709,426768.84375,-28.2176,47.6341,18.585,149872873.8831
2019-04-10 17:49:58.427495,-0.7381,-0.9176,-2.2998,-49:02:46.2,164:27:29.7,39.0108,30.2773,987.136,426762.28125,-28.3054,47.9584,18.5796,149872872.0336
2019-04-10 17:49:59.529003,-0.4125,-0.6744,-2.3769,-49:01:31.5,164:32:50.3,39.3906,30.3494,987.1501,426755.71875,-28.5024,48.022,18.7861,149872870.178
2019-04-10 17:50:00.635456,-0.1664,-0.433,-2.3555,-49:00:16.4,164:38:10.7,39.0574,30.3314,987.1553,426749.09375,-28.3814,47.9679,18.8915,149872868.316
2019-04-10 17:50:01.735647,0.0629,-0.2112,-2.2818,-48:59:01.2,164:43:30.9,39.3441,30.3674,987.1519,426742.4375,-28.2299,48.0291,18.9445,149872866.4482
2019-04-10 17:50:02.895819,0.301,-0.0135,-2.1604,-48:57:45.6,164:48:50.7,39.3656,30.2592,987.1829,426735.75,-28.2178,48.0029,19.02,149872864.5743
2019-04-10 17:50:04.059614,0.5571,0.1454,-2.0014,-48:55:13.7,164:59:29.5,39.2831,30.2592,987.1799,426722.28125,-28.3706,47.8878,18.8515,149872860.8084
2019-04-10 17:50:05.219558,0.8233,0.2546,-1.8108,-48:53:57.4,165:04:48.6,39.2079,30.2773,987.1331,426715.5,-28.4459,48.0872,18.8768,149872858.9162
2019-04-10 17:50:06.370969,1.1566,0.2554,-1.589,-48:52:40.7,165:10:07.3,39.3333,30.3494,987.1633,426708.6875,-28.685,47.8491,18.8547,149872857.0183
2019-04-10 17:50:07.528139,1.4145,0.2399,-1.3934,-48:51:23.8,165:15:25.7,38.8101,30.2592,987.1597,426701.84375,-28.9063,47.6706,18.8912,149872855.1139
2019-04-10 17:50:08.631050,1.6424,0.1874,-1.2162,-48:50:06.7,165:20:43.8,39.1613,30.2953,987.1355,426694.96875,-29.2607,47.103,18.883,149872853.2038
2019-04-10 17:50:09.742343,1.8493,0.1008,-1.0677,-48:48:49.3,165:26:01.7,39.0395,30.3494,987.1558,426688.0625,-29.4692,47.1032,18.9935,149872869.1214
2019-04-10 17:50:10.842197,2.0367,-0.0026,-0.9442,-48:47:31.6,165:31:19.2,38.9606,30.3494,987.1521,426681.125,-29.3828,47.0499,19.2598,149872867.1992
2019-04-10 17:50:11.940458,2.2009,-0.1213,-0.8483,-48:46:13.6,165:36:36.5,39.1756,30.2592,987.1562,426674.15625,-29.5867,47.1084,19.511,149872865.2712
2019-04-10 17:50:13.040917,2.353,-0.2517,-0.7739,-48:43:36.9,165:47:10.2,39.2724,30.3855,987.1399,426660.09375,-29.8455,47.2425,19.2491,149872861.3978
2019-04-10 17:50:14.147091,2.5083,-0.3874,-0.7232,-48:42:18.1,165:52:26.6,38.8639,30.3855,987.1304,426653.03125,-29.7409,47.2541,18.882,149872859.4521
2019-04-10 17:50:15.247110,2.8199,-0.6938,-0.6858,-48:40:59.1,165:57:42.8,39.2939,30.2592,987.1689,426645.9375,-29.612,46.913,18.7832,149872857.5006
2019-04-10 17:50:16.344799,-3.0642,-0.9817,-0.794,-48:39:39.8,166:02:58.6,39.1183,30.3133,987.1772,426638.8125,-29.5479,46.9184,19.3637,149872855.5432
2019-04-10 17:50:17.443627,-2.3682,-1.1876,-1.2301,-48:38:20.3,166:08:14.2,38.9105,30.2052,987.1733,426631.65625,-29.6486,46.6032,19.2065,149872853.58
2019-04-10 17:50:18.545886,-1.3878,-1.1685,-1.9646,-48:37:00.5,166:13:29.4,39.0072,30.3855,987.1296,426624.4375,-29.679,46.7027,19.1903,149872851.6112
2019-04-10 17:50:19.646109,-0.791,-0.9677,-2.32,-48:35:40.4,166:18:44.4,38.932,30.2773,987.1367,426617.21875,-29.4885,46.8338,19.3958,149872849.6363
2019-04-10 17:50:20.746520,-0.4782,-0.706,-2.3934,-48:34:20.1,166:23:59.1,39.0825,30.2773,987.1145,426609.96875,-29.6551,46.9136,19.2717,149872847.6558
2019-04-10 17:50:21.843270,-0.217,-0.4588,-2.3887,-48:32:59.5,166:29:13.5,39.2079,30.2773,987.1128,426602.6875,-29.672,46.7605,18.8178,149872845.6696
2019-04-10 17:50:22.946412,0.0849,-0.238,-2.3157,-48:31:38.6,166:34:27.6,39.3906,30.4035,987.1523,426595.34375,-29.7046,46.7714,18.7984,149872843.6774
2019-04-10 17:50:24.044405,0.3051,-0.0507,-2.1977,-48:28:56.1,166:44:54.9,39.3548,30.3855,987.1226,426580.625,-29.7764,46.6395,18.7211,149872839.6761
2019-04-10 17:50:25.144992,0.5361,0.1021,-2.046,-48:27:34.5,166:50:08.1,39.061,30.3133,987.1306,426573.21875,-29.4749,46.7741,18.378,149872837.667
2019-04-10 17:50:26.243993,0.7905,0.2101,-1.8716,-48:26:12.6,166:55:21.1,39.1936,30.2052,987.1311,426565.75,-29.158,46.4326,18.1033,149872835.6523
2019-04-10 17:50:27.344006,1.0473,0.2688,-1.6812,-48:24:50.5,167:00:33.7,39.1004,30.3314,987.1414,426558.28125,-28.9189,46.2131,18.0666,149872833.6319
2019-04-10 17:50:28.442846,1.3187,0.2769,-1.477,-48:23:28.1,167:05:46.0,39.3261,30.2953,987.1833,426550.78125,-29.2523,46.0972,17.8522,149872831.6059
2019-04-10 17:50:29.544557,1.4779,0.25,-1.2865,-48:22:05.4,167:10:58.0,39.0968,30.2773,987.1511,426543.21875,-29.3262,46.2686,17.4498,149872829.574
2019-04-10 17:50:30.644082,1.7053,0.187,-1.1206,-48:20:42.4,167:16:09.8,39.3476,30.3674,987.1545,426535.65625,-29.3716,45.7675,17.5117,149872827.5368
2019-04-10 17:50:31.742636,1.9152,0.0942,-0.9833,-48:19:19.3,167:21:21.3,39.2007,30.2953,987.1589,426528.0625,-29.2154,45.6064,17.9397,149872825.494
2019-04-10 17:50:32.841672,2.1007,-0.0184,-0.8729,-48:17:55.8,167:26:32.4,38.957,30.3494,987.1848,426520.40625,-29.0139,45.6358,17.522,149872823.4456
2019-04-10 17:50:33.951141,2.2642,-0.1422,-0.7804,-48:16:32.1,167:31:43.3,39.3011,30.3133,987.1562,426512.75,-28.9196,45.481,17.8055,149872821.3916
2019-04-10 17:50:35.050957,2.4169,-0.2711,-0.7208,-48:13:44.0,167:42:04.1,39.1075,30.2592,987.1287,426497.34375,-29.2978,45.7538,17.8657,149872817.2672
2019-04-10 17:50:36.156799,2.5627,-0.4042,-0.6812,-48:12:19.5,167:47:14.0,39.792,30.2592,987.1492,426489.5625,-29.5085,45.9486,17.8066,149872815.1965
2019-04-10 17:50:37.263236,2.8783,-0.7164,-0.6576,-48:10:54.8,167:52:23.7,38.7205,30.2773,987.1299,426481.78125,-29.5887,46.2871,17.9625,149872813.1205
2019-04-10 17:50:38.365684,-2.9821,-1.0002,-0.7993,-48:09:29.8,167:57:33.1,39.0717,30.2592,987.1477,426473.96875,-29.6542,46.4303,18.1632,149872811.0393
2019-04-10 17:50:39.466022,-2.2385,-1.1864,-1.2869,-48:08:04.6,168:02:42.2,39.2115,30.3494,987.1375,426466.125,-29.2851,46.5965,18.5246,149872808.9525
2019-04-10 17:50:40.575301,-1.3026,-1.1414,-1.9781,-48:06:39.1,168:07:50.9,38.9965,30.3314,987.1333,426458.21875,-28.8165,46.5854,18.4701,149872806.8603
2019-04-10 17:50:41.674511,-0.7478,-0.9335,-2.2934,-48:05:13.4,168:12:59.4,39.2473,30.2773,987.146,426450.3125,-28.9328,46.5558,18.9031,149872804.7624
2019-04-10 17:50:42.784818,-0.4175,-0.6884,-2.3739,-48:03:47.4,168:18:07.6,38.699,30.3855,987.1372,426442.375,-28.9544,46.6702,18.4682,149872802.6594
2019-04-10 17:50:43.886788,-0.1654,-0.4478,-2.3568,-48:02:21.1,168:23:15.4,39.1326,30.3494,987.1785,426434.40625,-28.8862,46.5869,18.4774,149872800.5512
2019-04-10 17:50:44.987733,0.0584,-0.2301,-2.2841,-47:59:27.9,168:33:30.3,39.0108,30.2592,987.1521,426418.375,-28.8323,46.5747,18.9852,149872796.3185
2019-04-10 17:50:46.089315,0.2815,-0.0362,-2.1731,-47:58:00.9,168:38:37.3,39.2903,30.3133,987.1416,426410.3125,-28.9613,46.6117,18.7325,149872812.0275
2019-04-10 17:50:47.187685,0.5194,0.1176,-2.0299,-47:56:33.7,168:43:43.9,39.2115,30.2592,987.1494,426402.1875,-28.9337,46.2595,18.225,149872809.8979
2019-04-10 17:50:48.287703,0.7699,0.2264,-1.8574,-47:55:06.2,168:48:50.2,39.0645,30.3133,987.1228,426394.0625,-28.8442,46.2049,18.0811,149872807.7631
2019-04-10 17:50:49.395964,1.0347,0.2873,-1.6616,-47:53:38.4,168:53:56.3,39.2509,30.2412,987.1453,426385.90625,-28.9123,46.3133,18.1492,149872805.6229
2019-04-10 17:50:50.501994,1.2964,0.2961,-1.4683,-47:52:10.4,168:59:02.1,39.3548,30.3314,987.1763,426377.71875,-29.0205,46.018,18.3544,149872803.4774
2019-04-10 17:50:51.606899,1.5453,0.2592,-1.2867,-47:50:42.2,169:04:07.6,39.1649,30.3314,987.2058,426369.5,-28.9314,46.2626,18.573,149872801.3269
2019-04-10 17:50:52.708041,1.7707,0.1838,-1.1224,-47:49:13.7,169:09:12.7,39.1255,30.4035,987.2,426361.25,-28.9536,46.3828,18.4265,149872799.1712
2019-04-10 17:50:53.805620,1.9698,0.0843,-0.9915,-47:47:45.0,169:14:17.6,39.5447,30.3674,987.1628,426353.0,-28.9899,46.2661,18.03,149872797.0103
2019-04-10 17:50:54.914499,2.1486,-0.0358,-0.8834,-47:46:16.0,169:19:22.1,39.0717,30.2773,987.1287,426344.6875,-28.999,46.3123,17.9424,149872794.844
2019-04-10 17:50:56.012356,2.3084,-0.1645,-0.804,-47:43:17.3,169:29:30.3,39.2079,30.2773,987.1377,426327.96875,-28.8226,46.1253,18.2215,149872790.4964
2019-04-10 17:50:57.113285,2.4599,-0.2989,-0.7491,-47:41:47.6,169:34:33.9,39.5698,30.2953,987.1516,426319.5625,-28.9449,45.8768,18.4763,149872788.315
2019-04-10 17:50:58.212819,2.7697,-0.61,-0.6981,-47:40:17.6,169:39:37.2,39.3799,30.4035,987.1597,426311.125,-28.9414,45.9912,18.4059,149872786.1286
2019-04-10 17:50:59.317321,-3.1377,-0.9053,-0.7752,-47:38:47.4,169:44:40.3,39.2652,30.2773,987.1384,426302.6875,-28.8206,46.0124,18.2549,149872783.9368
2019-04-10 17:51:00.426427,-2.5308,-1.1332,-1.1202,-47:37:17.0,169:49:42.9,39.1183,30.2773,987.1394,426294.1875,-28.795,45.7953,17.5364,149872781.7402
2019-04-10 17:51:01.525136,-1.6141,-1.1721,-1.7947,-47:35:46.3,169:54:45.4,39.1971,30.3494,987.1187,426285.65625,-28.6557,45.6191,17.611,149872779.5385
2019-04-10 17:51:02.629814,-0.9227,-1.0017,-2.2515,-47:34:15.3,169:59:47.5,39.3333,30.3133,987.1301,426277.125,-28.0673,45.7749,18.1109,149872777.3317
2019-04-10 17:51:03.734321,-0.5361,-0.7625,-2.3936,-47:32:44.2,170:04:49.3,39.2903,30.2773,987.144,426268.53125,-28.4179,45.9677,17.9945,149872775.1202
2019-04-10 17:51:04.840989,-0.2666,-0.5186,-2.4037,-47:31:12.7,170:09:50.7,39.2186,30.2773,987.1379,426259.9375,-28.5074,46.062,17.9494,149872772.9034
2019-04-10 17:51:05.938099,-0.035,-0.2911,-2.3515,-47:29:41.1,170:14:52.0,39.319,30.2592,987.1267,426251.28125,-28.5036,45.906,17.6131,149872770.6818
2019-04-10 17:51:07.036785,0.1857,-0.0888,-2.2548,-47:26:37.0,170:24:53.4,39.0108,30.2773,987.1216,426233.90625,-28.742,46.0713,18.0751,149872766.2237
2019-04-10 17:51:08.136990,0.418,0.0813,-2.1234,-47:25:04.6,170:29:53.7,39.2796,30.3133,987.1577,426225.1875,-28.7858,45.9728,18.3117,149872763.9876
2019-04-10 17:51:09.235432,0.6623,0.2078,-1.9621,-47:23:32.0,170:34:53.6,39.1613,30.3314,987.1289,426216.4375,-28.7963,45.8293,18.1651,149872761.7462
2019-04-10 17:51:10.339996,0.927,0.2898,-1.7718,-47:21:59.1,170:39:53.2,39.3441,30.2052,987.1204,426207.65625,-28.7685,45.8239,18.3758,149872759.5
2019-04-10 17:51:11.438130,1.1924,0.3163,-1.5748,-47:20:26.0,170:44:52.6,38.9965,30.4035,987.1606,426198.84375,-28.6324,45.7312,18.3912,149872757.2492
2019-04-10 17:51:12.535791,1.4486,0.2966,-1.3861,-47:18:52.7,170:49:51.6,39.0825,30.2232,987.1321,426189.96875,-28.8426,45.7498,18.2943,149872754.9934
2019-04-10 17:51:13.644064,1.6882,0.2327,-1.2148,-47:17:19.1,170:54:50.3,39.2365,30.2953,987.1421,426181.09375,-28.7767,45.7159,18.2669,149872752.7328
2019-04-10 17:51:14.743405,1.8967,0.1412,-1.0743,-47:15:45.3,170:59:48.7,39.0825,30.2773,987.1372,426172.1875,-28.5491,45.61,18.3412,149872750.4676
2019-04-10 17:51:15.843451,2.0851,0.0255,-0.9639,-47:14:11.2,171:04:46.9,39.2473,30.2592,987.1436,426163.25,-28.4095,45.5561,17.9631,149872748.1975
2019-04-10 17:51:16.943387,2.2494,-0.1028,-0.8699,-47:12:36.9,171:09:44.7,39.3978,30.2773,987.1296,426154.3125,-28.4118,45.5905,18.0787,149872745.9226
2019-04-10 17:51:18.042087,2.4001,-0.2346,-0.8065,-47:09:27.6,171:19:39.3,39.3297,30.3133,987.1211,426136.28125,-28.4621,45.5027,17.815,149872741.3587
2019-04-10 17:51:19.139444,2.5437,-0.368,-0.7649,-47:07:52.6,171:24:36.2,38.7277,30.2052,987.1343,426127.21875,-28.7909,45.6119,18.0506,149872739.0696
2019-04-10 17:51:20.237545,2.8696,-0.6707,-0.7451,-47:06:17.3,171:29:32.8,39.086,30.2773,987.1348,426118.15625,-28.7484,45.4759,17.9811,149872736.7759
2019-04-10 17:51:21.345620,-2.995,-0.95,-0.8778,-47:04:41.9,171:34:29.0,38.9929,30.2773,987.1133,426109.03125,-28.8757,45.3749,18.4365,149872734.4776
2019-04-10 17:51:22.445042,-2.3134,-1.1443,-1.3046,-47:03:06.1,171:39:24.9,39.3441,30.3314,987.1145,426099.90625,-28.9119,45.0918,18.4465,149872732.1746
2019-04-10 17:51:23.542241,-1.4248,-1.126,-1.9552,-47:01:30.2,171:44:20.5,39.2222,30.4035,987.145,426090.71875,-29.0112,45.1829,18.6122,149872747.7006
2019-04-10 17:51:24.654319,-0.8318,-0.9316,-2.3135,-46:59:54.0,171:49:15.9,39.086,30.3314,987.1316,426081.53125,-29.1786,45.1145,18.6253,149872745.3881
2019-04-10 17:51:25.755410,-0.4808,-0.6901,-2.4191,-46:58:17.6,171:54:10.9,39.4551,30.2052,987.1379,426072.3125,-29.235,45.2114,18.4563,149872743.0713
2019-04-10 17:51:26.853755,-0.22,-0.452,-2.4153,-46:56:41.0,171:59:05.6,38.7994,30.2773,987.1982,426063.0625,-29.2522,45.3696,17.4247,149872740.75
2019-04-10 17:51:27.958215,0.0117,-0.2289,-2.3502,-46:53:27.0,172:08:54.1,38.9929,30.2592,987.1919,426044.4375,-28.908,45.1269,17.3366,149872736.0939
2019-04-10 17:51:29.059984,0.2393,-0.031,-2.2432,-46:51:49.6,172:13:47.8,39.1147,30.3674,987.1318,426035.09375,-28.8592,45.0635,17.8859,149872733.7589
2019-04-10 17:51:30.159512,0.4779,0.1301,-2.101,-46:50:12.1,172:18:41.2,39.1613,30.3133,987.1431,426025.75,-28.8474,45.1926,18.1153,149872731.4195
2019-04-10 17:51:31.255865,0.728,0.2475,-1.93,-46:48:34.3,172:23:34.4,39.0072,30.2412,987.1433,426016.34375,-28.8443,45.2388,18.0453,149872729.0757
2019-04-10 17:51:32.356876,0.9937,0.3128,-1.7415,-46:46:56.2,172:28:27.2,39.2545,30.3314,987.1562,426006.90625,-28.7974,45.1102,17.5473,149872726.7273
2019-04-10 17:51:33.459238,1.2603,0.3283,-1.5455,-46:45:18.0,172:33:19.7,38.8531,30.1871,987.1602,425997.4375,-28.9385,44.9441,17.7822,149872724.3747
2019-04-10 17:51:34.558200,1.5146,0.2947,-1.3596,-46:43:39.5,172:38:11.9,39.0287,30.1871,987.1501,425987.96875,-28.8639,45.1299,17.8203,149872722.0175
2019-04-10 17:51:35.661495,1.7492,0.2216,-1.1982,-46:42:00.8,172:43:03.8,39.018,30.2953,987.1772,425978.4375,-29.0888,45.0973,17.859,149872719.6559
2019-04-10 17:51:36.758597,1.9527,0.1227,-1.062,-46:40:21.8,172:47:55.4,39.2079,30.2412,987.1936,425968.90625,-28.9387,45.2889,17.7504,149872717.29
